[
  {
    "name": "강남구민체육센터 수영장",
    "address": "서울 강남구 선릉로99길 13",
    "lat": 37.5012,
    "lng": 127.0396,
    "phone": "02-3423-5678",
    "gu": "강남구",
    "source": "서울시공공데이터",
    "rating": 4.2
  },
  {
    "name": "대치1동 구민체육센터",
    "address": "서울 강남구 남부순환로 2947",
    "lat": 37.4941,
    "lng": 127.0621,
    "phone": "02-3411-1708",
    "gu": "강남구",
    "source": "서울시공공데이터",
    "rating": 4.2
  },
  {
    "name": "강동구민회관 수영장",
    "address": "서울 강동구 성내로 47",
    "lat": 37.5303,
    "lng": 127.1239,
    "phone": "02-440-5500",
    "gu": "강동구",
    "source": "서울시공공데이터",
    "rating": 4.2
  },
  {
    "name": "천호체육관 수영장",
    "address": "서울 강동구 천중로 203",
    "lat": 37.5385,
    "lng": 127.1241,
    "phone": "02-440-5974",
    "gu": "강동구",
    "source": "서울시공공데이터",
    "rating": 4.2
  },
  {
    "name": "강북구민체육센터",
    "address": "서울 강북구 한천로 1089",
    "lat": 37.6397,
    "lng": 127.0257,
    "phone": "02-985-1942",
    "gu": "강북구",
    "source": "서울시공공데이터",
    "rating": 4.2
  },
  {
    "name": "강서구민체육센터",
    "address": "서울 강서구 화곡로 302",
    "lat": 37.5513,
    "lng": 126.8479,
    "phone": "02-2600-1700",
    "gu": "강서구",
    "source": "서울시공공데이터",
    "rating": 4.2
  },
  {
    "name": "관악구민체육센터",
    "address": "서울 관악구 남부순환로 1906",
    "lat": 37.478,
    "lng": 126.9517,
    "phone": "02-879-6611",
    "gu": "관악구",
    "source": "서울시공공데이터",
    "rating": 4.2
  },
  {
    "name": "광진구민체육센터",
    "address": "서울 광진구 능동로 289",
    "lat": 37.5454,
    "lng": 127.0819,
    "phone": "02-450-1491",
    "gu": "광진구",
    "source": "서울시공공데이터",
    "rating": 4.2
  },
  {
    "name": "구로구민체육센터",
    "address": "서울 구로구 구로중앙로 118",
    "lat": 37.4953,
    "lng": 126.8868,
    "phone": "02-860-2700",
    "gu": "구로구",
    "source": "서울시공공데이터",
    "rating": 4.2
  },
  {
    "name": "금천구민체육센터",
    "address": "서울 금천구 시흥대로73길 70",
    "lat": 37.4566,
    "lng": 126.9006,
    "phone": "02-2104-0800",
    "gu": "금천구",
    "source": "서울시공공데이터",
    "rating": 4.2
  },
  {
    "name": "노원구민체육관",
    "address": "서울 노원구 동일로 1328",
    "lat": 37.6543,
    "lng": 127.0568,
    "phone": "02-2116-4900",
    "gu": "노원구",
    "source": "서울시공공데이터",
    "rating": 4.2
  },
  {
    "name": "도봉구민회관 수영장",
    "address": "서울 도봉구 마들로 656",
    "lat": 37.6658,
    "lng": 127.0475,
    "phone": "02-2091-2700",
    "gu": "도봉구",
    "source": "서울시공공데이터",
    "rating": 4.2
  },
  {
    "name": "동대문구민체육센터",
    "address": "서울 동대문구 천호대로 145",
    "lat": 37.5744,
    "lng": 127.0393,
    "phone": "02-2127-4800",
    "gu": "동대문구",
    "source": "서울시공공데이터",
    "rating": 4.2
  },
  {
    "name": "동작구민체육센터",
    "address": "서울 동작구 여의대방로 112",
    "lat": 37.5022,
    "lng": 126.9395,
    "phone": "02-820-9700",
    "gu": "동작구",
    "source": "서울시공공데이터",
    "rating": 4.2
  },
  {
    "name": "마포구민체육센터",
    "address": "서울 마포구 월드컵로 212",
    "lat": 37.5663,
    "lng": 126.9019,
    "phone": "02-3153-8800",
    "gu": "마포구",
    "source": "서울시공공데이터",
    "rating": 4.2
  },
  {
    "name": "서대문구민체육센터",
    "address": "서울 서대문구 모래내로 172",
    "lat": 37.5824,
    "lng": 126.936,
    "phone": "02-330-1361",
    "gu": "서대문구",
    "source": "서울시공공데이터",
    "rating": 4.2
  },
  {
    "name": "서초구민체육센터",
    "address": "서울 서초구 서초중앙로 97",
    "lat": 37.4926,
    "lng": 127.0148,
    "phone": "02-2155-8100",
    "gu": "서초구",
    "source": "서울시공공데이터",
    "rating": 4.2
  },
  {
    "name": "성동구민체육센터",
    "address": "서울 성동구 무학봉15길 12",
    "lat": 37.5631,
    "lng": 127.0408,
    "phone": "02-2299-7700",
    "gu": "성동구",
    "source": "서울시공공데이터",
    "rating": 4.2
  },
  {
    "name": "성북구민체육센터",
    "address": "서울 성북구 화랑로 63",
    "lat": 37.5894,
    "lng": 127.0182,
    "phone": "02-920-3833",
    "gu": "성북구",
    "source": "서울시공공데이터",
    "rating": 4.2
  },
  {
    "name": "송파구민체육센터",
    "address": "서울 송파구 백제고분로42길 5",
    "lat": 37.5045,
    "lng": 127.1123,
    "phone": "02-2147-3800",
    "gu": "송파구",
    "source": "서울시공공데이터",
    "rating": 4.2
  },
  {
    "name": "잠실학생체육관",
    "address": "서울 송파구 올림픽로 25",
    "lat": 37.5145,
    "lng": 127.0736,
    "phone": "02-2147-3333",
    "gu": "송파구",
    "source": "서울시공공데이터",
    "rating": 4.2
  },
  {
    "name": "올림픽공원 수영장",
    "address": "서울 송파구 올림픽로 424",
    "lat": 37.5219,
    "lng": 127.1219,
    "phone": "02-410-1114",
    "gu": "송파구",
    "source": "서울시공공데이터",
    "rating": 4.2
  },
  {
    "name": "양천구민체육센터",
    "address": "서울 양천구 목동동로 81",
    "lat": 37.5264,
    "lng": 126.8756,
    "phone": "02-2646-3333",
    "gu": "양천구",
    "source": "서울시공공데이터",
    "rating": 4.2
  },
  {
    "name": "영등포구민체육센터",
    "address": "서울 영등포구 국회대로72길 22",
    "lat": 37.5262,
    "lng": 126.8963,
    "phone": "02-2670-1330",
    "gu": "영등포구",
    "source": "서울시공공데이터",
    "rating": 4.2
  },
  {
    "name": "용산구민체육센터",
    "address": "서울 용산구 한강대로40길 5",
    "lat": 37.5311,
    "lng": 126.9653,
    "phone": "02-2199-7614",
    "gu": "용산구",
    "source": "서울시공공데이터",
    "rating": 4.2
  },
  {
    "name": "은평구민체육센터",
    "address": "서울 은평구 통일로 684",
    "lat": 37.6176,
    "lng": 126.9227,
    "phone": "02-351-3393",
    "gu": "은평구",
    "source": "서울시공공데이터",
    "rating": 4.2
  },
  {
    "name": "종로구민체육센터",
    "address": "서울 종로구 율곡로 283",
    "lat": 37.5842,
    "lng": 127.0025,
    "phone": "02-2148-1845",
    "gu": "종로구",
    "source": "서울시공공데이터",
    "rating": 4.2
  },
  {
    "name": "중구구민체육센터",
    "address": "서울 중구 다산로 32",
    "lat": 37.5641,
    "lng": 127.0091,
    "phone": "02-2263-1493",
    "gu": "중구",
    "source": "서울시공공데이터",
    "rating": 4.2
  },
  {
    "name": "중랑구민체육센터",
    "address": "서울 중랑구 신내역로3길 82",
    "lat": 37.6026,
    "lng": 127.0925,
    "phone": "02-2094-1709",
    "gu": "중랑구",
    "source": "서울시공공데이터",
    "rating": 4.2
  },
  {
    "name": "부산시민수영장",
    "address": "부산 동래구 우장춘로 155",
    "lat": 35.2044,
    "lng": 129.0781,
    "phone": "051-550-6400",
    "city": "부산",
    "source": "공공데이터",
    "rating": 4.0
  },
  {
    "name": "사직수영장",
    "address": "부산 동래구 사직동 사직로 45",
    "lat": 35.194,
    "lng": 129.0616,
    "phone": "051-500-2765",
    "city": "부산",
    "source": "공공데이터",
    "rating": 4.0
  },
  {
    "name": "대구시민수영장",
    "address": "대구 북구 고성로 175",
    "lat": 35.8958,
    "lng": 128.5828,
    "phone": "053-353-4400",
    "city": "대구",
    "source": "공공데이터",
    "rating": 4.0
  },
  {
    "name": "인천문학수영장",
    "address": "인천 미추홀구 매소홀로 618",
    "lat": 37.4369,
    "lng": 126.6943,
    "phone": "032-440-5565",
    "city": "인천",
    "source": "공공데이터",
    "rating": 4.0
  },
  {
    "name": "인천도원수영장",
    "address": "인천 서구 봉오재로 18",
    "lat": 37.5485,
    "lng": 126.6764,
    "phone": "032-560-4433",
    "city": "인천",
    "source": "공공데이터",
    "rating": 4.0
  },
  {
    "name": "광주 남구체육관 수영장",
    "address": "광주 남구 월산로 180",
    "lat": 35.1329,
    "lng": 126.8913,
    "phone": "062-607-3950",
    "city": "광주",
    "source": "공공데이터",
    "rating": 4.0
  },
  {
    "name": "대전 대덕구체육관 수영장",
    "address": "대전 대덕구 대전로 1333",
    "lat": 36.3466,
    "lng": 127.4156,
    "phone": "042-608-6644",
    "city": "대전",
    "source": "공공데이터",
    "rating": 4.0
  },
  {
    "name": "울산문수수영장",
    "address": "울산 남구 문수로 272",
    "lat": 35.5056,
    "lng": 129.3404,
    "phone": "052-226-4801",
    "city": "울산",
    "source": "공공데이터",
    "rating": 4.0
  }
]