[
  {
    "name": "삼성 래미안 수영장",
    "address": "서울 강남구 영동대로 513",
    "lat": 37.5089,
    "lng": 127.0632,
    "phone": "02-3011-0900",
    "daily_price": 15000,
    "free_swim_price": 12000,
    "facilities": ["사우나", "주차장", "락커룸", "샤워실", "카페"],
    "lanes": 10,
    "pool_size": "25m x 15m",
    "water_temp": "28-29도",
    "description": "최신 시설의 프리미엄 수영장",
    "rating": 4.6,
    "source": "민간시설"
  },
  {
    "name": "삼모스포렉스",
    "address": "서울 관악구 신림로 340",
    "lat": 37.4843,
    "lng": 126.9297,
    "phone": "02-887-7979",
    "daily_price": 8000,
    "free_swim_price": 7000,
    "membership_prices": {
      "1month": 130000,
      "3month": 360000,
      "6month": 650000
    },
    "facilities": ["주차장", "락커룸", "샤워실", "헬스장", "GX룸"],
    "lanes": 6,
    "pool_size": "25m x 12m",
    "water_temp": "28도",
    "description": "신림동 최대 규모 복합 스포츠센터",
    "rating": 4.3,
    "source": "민간시설"
  },
  {
    "name": "롯데월드 아쿠아리움 수영장",
    "address": "서울 송파구 올림픽로 240",
    "lat": 37.5111,
    "lng": 127.0980,
    "phone": "02-411-2000",
    "daily_price": 20000,
    "free_swim_price": 18000,
    "facilities": ["주차장", "사우나", "락커룸", "샤워실", "레스토랑"],
    "lanes": 8,
    "pool_size": "50m x 25m",
    "water_temp": "29도",
    "description": "올림픽 규격의 대형 수영장",
    "rating": 4.7,
    "source": "민간시설"
  },
  {
    "name": "천호 아쿠아밸리",
    "address": "서울 강동구 천호대로 1017",
    "lat": 37.5387,
    "lng": 127.1239,
    "phone": "02-489-3000",
    "daily_price": 9000,
    "free_swim_price": 7500,
    "facilities": ["주차장", "사우나", "락커룸", "샤워실"],
    "lanes": 7,
    "pool_size": "25m x 15m",
    "water_temp": "28도",
    "description": "깨끗한 시설의 동네 수영장",
    "rating": 4.2,
    "source": "민간시설"
  },
  {
    "name": "타임스퀘어 수영장",
    "address": "서울 영등포구 영중로 15",
    "lat": 37.5171,
    "lng": 126.9033,
    "phone": "02-2638-2000",
    "daily_price": 12000,
    "free_swim_price": 10000,
    "facilities": ["주차장", "사우나", "락커룸", "샤워실", "키즈풀"],
    "lanes": 8,
    "pool_size": "25m x 15m",
    "water_temp": "28-29도",
    "description": "쇼핑몰 내 편리한 위치",
    "rating": 4.4,
    "source": "민간시설"
  },
  {
    "name": "홍대 스포츠컴플렉스",
    "address": "서울 마포구 양화로 188",
    "lat": 37.5563,
    "lng": 126.9240,
    "phone": "02-334-8888",
    "daily_price": 11000,
    "free_swim_price": 9000,
    "facilities": ["주차장", "락커룸", "샤워실", "헬스장"],
    "lanes": 6,
    "pool_size": "25m x 12m",
    "water_temp": "28도",
    "description": "홍대 인근 복합 스포츠시설",
    "rating": 4.3,
    "source": "민간시설"
  },
  {
    "name": "신세계백화점 강남점 수영장",
    "address": "서울 서초구 신반포로 176",
    "lat": 37.5041,
    "lng": 127.0049,
    "phone": "02-3479-1234",
    "daily_price": 18000,
    "free_swim_price": 15000,
    "facilities": ["주차장", "사우나", "락커룸", "샤워실", "스파"],
    "lanes": 8,
    "pool_size": "25m x 15m",
    "water_temp": "29도",
    "description": "백화점 내 프리미엄 수영장",
    "rating": 4.5,
    "source": "민간시설"
  },
  {
    "name": "구로 디지털밸리 수영장",
    "address": "서울 구로구 디지털로 273",
    "lat": 37.4854,
    "lng": 126.9013,
    "phone": "02-2028-3000",
    "daily_price": 8500,
    "free_swim_price": 7000,
    "facilities": ["주차장", "락커룸", "샤워실"],
    "lanes": 6,
    "pool_size": "25m x 12m",
    "water_temp": "28도",
    "description": "직장인을 위한 수영장",
    "rating": 4.1,
    "source": "민간시설"
  },
  {
    "name": "마곡 LG아트센터 수영장",
    "address": "서울 강서구 마곡중앙8로 71",
    "lat": 37.5617,
    "lng": 126.8254,
    "phone": "02-2005-0114",
    "daily_price": 14000,
    "free_swim_price": 12000,
    "facilities": ["주차장", "사우나", "락커룸", "샤워실", "카페"],
    "lanes": 8,
    "pool_size": "25m x 15m",
    "water_temp": "28-29도",
    "description": "최신 문화복합시설 내 수영장",
    "rating": 4.6,
    "source": "민간시설"
  },
  {
    "name": "롯데마트 노원점 수영장",
    "address": "서울 노원구 동일로 1414",
    "lat": 37.6552,
    "lng": 127.0615,
    "phone": "02-950-2500",
    "daily_price": 9000,
    "free_swim_price": 7500,
    "facilities": ["주차장", "락커룸", "샤워실"],
    "lanes": 6,
    "pool_size": "25m x 12m",
    "water_temp": "28도",
    "description": "가족 단위 이용에 편리",
    "rating": 4.2,
    "source": "민간시설"
  }
]
